nombre,lat,lng
Salta,-24.7859,-65.4117
Santiago del Estero,-27.7951,-64.2615
Neuquén,-38.9516,-68.0591
La Pampa,-36.6148,-64.2839
Santa Cruz,-51.623,-69.2168
La Rioja,-29.4131,-66.8558
Catamarca,-28.4696,-65.7852
Tierra del Fuego,-54.8019,-68.303
Corrientes,-27.4806,-58.8341
Río Negro,-40.8135,-63.0
